given_ae_cn:
  universities:
  - rank: 0.0
    longitude: 55.1676
    original_name: Hult International Business School (Dubai Campus)
    hero_image:
      alt_text:
      src: "/mstr/country/united-arab-emirates/city/dubai/university/hult-international-business-school-dubai-campus/image-o6l9gx.jpeg"
    name: 霍特国际商学院迪拜校区
    latitude: 25.1038
    slug: hult-international-business-school-dubai-campus
    jcr_id: "/mstr/country/united-arab-emirates/city/dubai/university/hult-international-business-school-dubai-campus"
    city_slug: dubai

given_ae_en:
  universities:
  - rank: 0.0
    longitude: 55.1676
    original_name: Hult International Business School (Dubai Campus)
    hero_image:
      alt_text:
      src: "/mstr/country/united-arab-emirates/city/dubai/university/hult-international-business-school-dubai-campus/image-o6l9gx.jpeg"
    name: Hult International Business School (Dubai Campus)
    latitude: 25.1038
    slug: hult-international-business-school-dubai-campus
    jcr_id: "/mstr/country/united-arab-emirates/city/dubai/university/hult-international-business-school-dubai-campus"
    city_slug: dubai

given_jp_cn:
  universities:
  - longitude: 139.721
    jcr_id: "/mstr/country/japan/city/tokyo2/university/waseda-university-waseda-campus"
    name: 早稻田大学早稻田校区
    city_slug: tokyo
    original_name: Waseda University - Waseda Campus
    rank: 0
    slug: waseda-university-waseda-campus
    hero_image:
      src: "/mstr/country/japan/city/tokyo2/university/waseda-university-waseda-campus/image-o5t6x7.jpeg"
      alt_text:
    latitude: 35.7094
  - longitude: 139.701
    jcr_id: "/mstr/country/japan/city/tokyo2/university/tokyo-international-university"
    name: 东京国际大学
    city_slug: tokyo
    original_name: Tokyo International University
    rank: 0
    slug: tokyo-international-university
    hero_image:
      src: "/mstr/country/japan/city/tokyo2/university/tokyo-international-university/image-o5t8x5.jpeg"
      alt_text:
    latitude: 35.7099
  - longitude: 139.718
    jcr_id: "/mstr/country/japan/city/tokyo2/university/tokyo-university-of-social-welfare"
    name: 东京福祉大学
    city_slug: tokyo
    original_name: Tokyo University of Social Welfare
    rank: 0
    slug: tokyo-university-of-social-welfare
    hero_image:
      src: "/mstr/country/japan/city/tokyo2/university/tokyo-university-of-social-welfare/image-o5t90d.jpeg"
      alt_text:
    latitude: 35.7278
  - longitude: 139.718
    jcr_id: "/mstr/country/japan/city/tokyo2/university/waseda-university-toyama-campus"
    name: 早稻田大学户山校区
    city_slug: tokyo
    original_name: Waseda University - Toyama Campus
    rank: 0
    slug: waseda-university-toyama-campus
    hero_image:
      src: "/mstr/country/japan/city/tokyo2/university/waseda-university-toyama-campus/image-o5t794.jpeg"
      alt_text:
    latitude: 35.7061
  - longitude: 139.764
    jcr_id: "/mstr/country/japan/city/tokyo2/university/nihon-university"
    name: 日本大学
    city_slug: tokyo
    original_name: Nihon University
    rank: 0
    slug: nihon-university
    hero_image:
      src: "/mstr/country/japan/city/tokyo2/university/nihon-university/image-o5t8l5.jpeg"
      alt_text:
    latitude: 35.6976
  - longitude: 139.684
    jcr_id: "/mstr/country/japan/city/tokyo2/university/tokyo-institute-of-technology"
    name: 东京工业大学
    city_slug: tokyo
    original_name: Tokyo Institute of Technology
    rank: 0
    slug: tokyo-institute-of-technology
    hero_image:
      src: "/mstr/country/japan/city/tokyo2/university/tokyo-institute-of-technology/image-o5t86s.jpeg"
      alt_text:
    latitude: 35.6051
  - longitude: 139.66
    jcr_id: "/mstr/country/japan/city/tokyo2/university/meiji-university-nakano-campus"
    name: 明治大学中野校区
    city_slug: tokyo
    original_name: Meiji University - Nakano Campus
    rank: 0
    slug: meiji-university-nakano-campus
    hero_image:
      src: "/mstr/country/japan/city/tokyo2/university/meiji-university-nakano-campus/image-o5t8i2.jpeg"
      alt_text:
    latitude: 35.7069
  - longitude: 139.732
    jcr_id: "/mstr/country/japan/city/tokyo2/university/sophia-university"
    name: 上智大学
    city_slug: tokyo
    original_name: Sophia University
    rank: 0
    slug: sophia-university
    hero_image:
      src: "/mstr/country/japan/city/tokyo2/university/sophia-university/image-o5t8ql.jpeg"
      alt_text:
    latitude: 35.6829
  - longitude: 139.762
    jcr_id: "/mstr/country/japan/city/tokyo2/university/meiji-university-surugadai-campus"
    name: 明治大学骏河台校区
    city_slug: tokyo
    original_name: Meiji University - Surugadai Campus
    rank: 0
    slug: meiji-university-surugadai-campus
    hero_image:
      src: "/mstr/country/japan/city/tokyo2/university/meiji-university-surugadai-campus/image-o5t8a6.jpeg"
      alt_text:
    latitude: 35.6972
  - longitude: 139.685
    jcr_id: "/mstr/country/japan/city/tokyo2/university/the-university-of-tokyo-komaba-campus"
    name: 东京大学驹场校区
    city_slug: tokyo
    original_name: The University of Tokyo  - Komaba Campus
    rank: 0
    slug: the-university-of-tokyo-komaba-campus
    hero_image:
      src: "/mstr/country/japan/city/tokyo2/university/the-university-of-tokyo-komaba-campus/image-o5t7ku.jpeg"
      alt_text:
    latitude: 35.6599
  - longitude: 139.736
    jcr_id: "/mstr/country/japan/city/tokyo2/university/takushoku-university"
    name: 拓殖大学
    city_slug: tokyo
    original_name: Takushoku University
    rank: 0
    slug: takushoku-university
    hero_image:
      src: "/mstr/country/japan/city/tokyo2/university/takushoku-university/image-o5t8nn.jpeg"
      alt_text:
    latitude: 35.7154
  - longitude: 139.762
    jcr_id: "/mstr/country/japan/city/tokyo2/university/the-university-of-tokyo-hongo-campus"
    name: 东京大学本乡校区
    city_slug: tokyo
    original_name: The University of Tokyo - Hongo Campus
    rank: 0
    slug: the-university-of-tokyo-hongo-campus
    hero_image:
      src: "/mstr/country/japan/city/tokyo2/university/the-university-of-tokyo-hongo-campus/image-o5t753.jpeg"
      alt_text:
    latitude: 35.7127
  - longitude: 139.743
    jcr_id: "/mstr/country/japan/city/tokyo2/university/keio-university-mita-campus"
    name: 庆应义塾大学三田校区
    city_slug: tokyo
    original_name: Keio University - Mita Campus
    rank: 0
    slug: keio-university-mita-campus
    hero_image:
      src: "/mstr/country/japan/city/tokyo2/university/keio-university-mita-campus/image-o5t7vs.jpeg"
      alt_text:
    latitude: 35.6493
  - longitude: 135.641
    jcr_id: "/mstr/country/japan/city/osaka2/university/osaka-sangyo-university"
    name: 大阪产业大学
    city_slug: osaka-test
    original_name: Osaka Sangyo University
    rank: 0
    slug: osaka-sangyo-university
    hero_image:
      src: "/mstr/country/japan/city/osaka2/university/osaka-sangyo-university/image-o5t9hu.jpeg"
      alt_text:
    latitude: 34.7079
  - longitude: 135.723
    jcr_id: "/mstr/country/japan/city/kyoto2/university/ritsumeikan-university"
    name: 立命馆大学
    city_slug: kyoto
    original_name: Ritsumeikan University
    rank: 0
    slug: ritsumeikan-university
    hero_image:
    latitude: 35.0325
  - longitude: 135.781
    jcr_id: "/mstr/country/japan/city/kyoto2/university/kyoto-univiersity"
    name: 京都大学
    city_slug: kyoto
    original_name: Kyoto Univiersity
    rank: 0
    slug: kyoto-univiersity
    hero_image:
      src: "/mstr/country/japan/city/kyoto2/university/kyoto-univiersity/image-o5t9kt.jpeg"
      alt_text:
    latitude: 35.0263
  - longitude: 135.761
    jcr_id: "/mstr/country/japan/city/kyoto2/university/doshisha-university"
    name: 同志社大学
    city_slug: kyoto
    original_name: Doshisha University
    rank: 0
    slug: doshisha-university
    hero_image:
      src: "/mstr/country/japan/city/kyoto2/university/doshisha-university/image-o5t9sq.jpeg"
      alt_text:
    latitude: 35.0301
  - longitude: 135.523
    jcr_id: "/mstr/country/japan/city/osaka2/university/osaka-university"
    name: 大阪大学
    city_slug: osaka-test
    original_name: Osaka University
    rank: 0
    slug: osaka-university
    hero_image:
      src: "/mstr/country/japan/city/osaka2/university/osaka-university/image-o5t9eg.jpeg"
      alt_text:
    latitude: 34.8179
  - longitude: 139.648
    jcr_id: "/mstr/country/japan/city/tokyo2/university/meiji-university-izumi-campus"
    name: 明治大学和泉校区
    city_slug: tokyo
    original_name: Meiji University - Izumi Campus
    rank: 0
    slug: meiji-university-izumi-campus
    hero_image:
      src: "/mstr/country/japan/city/tokyo2/university/meiji-university-izumi-campus/image-o5t8de.jpeg"
      alt_text:
    latitude: 35.6709
  - longitude: 139.406
    jcr_id: "/mstr/country/japan/city/tokyo2/university/chuo-university"
    name: 中央大学
    city_slug: tokyo
    original_name: Chuo University
    rank: 0
    slug: chuo-university
    hero_image:
      src: "/mstr/country/japan/city/tokyo2/university/chuo-university/image-o5t8ug.jpeg"
      alt_text:
    latitude: 35.6414
  - longitude: 139.648
    jcr_id: "/mstr/country/japan/city/tokyo2/university/keio-university-hiyoshi-campus"
    name: 庆应义塾大学日吉校区
    city_slug: tokyo
    original_name: Keio University - Hiyoshi Campus
    rank: 0
    slug: keio-university-hiyoshi-campus
    hero_image:
      src: "/mstr/country/japan/city/tokyo2/university/keio-university-hiyoshi-campus/image-o5t837.jpeg"
      alt_text:
    latitude: 35.5536
